[
  {
    "title": "Meet the team",
    "city": "Toronto",
    "province": "ON",
    "lat": 43.6532,
    "lng": -79.3832,
    "date": "2025-09-15",
    "time": "18:00",
    "venue": "MaRS Discovery District",
    "description": "Meet local tech professionals and expand your network.",
    "event_type": "networking",
    "registration_url": "https://lu.ma/toronto-tech",
    "status": "upcoming"
  },
  {
    "title": "Enable Canada Tour",
    "city": "Niagara Falls",
    "province": "ON",
    "lat": 43.0896,
    "lng": -79.0849,
    "date": "2025-11-07",
    "time": "15:00",
    "venue": "Niagara Falls Innovation Hub",
    "description": "Meet the team behind Enabled Talent to explore career opportunities and corporate partnerships.",
    "event_type": "networking",
    "registration_url": "https://luma.com/73db3ivi",
    "status": "confirmed"
  },
  {
    "title": "Meet the team",
    "city": "Ottawa",
    "province": "ON",
    "lat": 45.4215,
    "lng": -75.6972,
    "date": "2025-09-20",
    "time": "10:00",
    "venue": "Bayview Yards",
    "description": "Hands-on workshop on AI and machine learning.",
    "event_type": "workshop",
    "registration_url": "https://lu.ma/ottawa-ai",
    "status": "upcoming"
  },
  {
    "title": "Meet the team",
    "city": "Mississauga",
    "province": "ON",
    "lat": 43.5890,
    "lng": -79.6441,
    "date": "2025-09-25",
    "time": "17:30",
    "venue": "Communitech Hub",
    "description": "Showcase of local startups and founders.",
    "event_type": "showcase",
    "registration_url": "https://lu.ma/waterloo-showcase",
    "status": "upcoming"
  },
  {
    "title": "Meet the team",
    "city": "Brampton",
    "province": "ON",
    "lat": 43.7315,
    "lng": -79.7624,
    "date": "2025-10-01",
    "time": "18:30",
    "venue": "Brampton Civic Centre",
    "description": "Connect with innovators and entrepreneurs in Brampton.",
    "event_type": "networking",
    "registration_url": "https://lu.ma/brampton-innovation",
    "status": "upcoming"
  },
  {
    "title": "Meet the team",
    "city": "Hamilton",
    "province": "ON",
    "lat": 43.2557,
    "lng": -79.8711,
    "date": "2025-10-03",
    "time": "19:00",
    "venue": "Hamilton Convention Centre",
    "description": "A gathering for tech professionals and enthusiasts.",
    "event_type": "panel",
    "registration_url": "https://lu.ma/hamilton-tech",
    "status": "upcoming"
  },
  {
    "title": "Meet the team",
    "city": "Markham",
    "province": "ON",
    "lat": 43.8561,
    "lng": -79.3370,
    "date": "2025-10-05",
    "time": "09:30",
    "venue": "Markham Civic Centre",
    "description": "Summit on diversity, equity, and inclusion in the workplace.",
    "event_type": "info_session",
    "registration_url": "https://lu.ma/markham-dei",
    "status": "upcoming"
  },
  {
    "title": "Meet the team",
    "city": "Richmond Hill",
    "province": "ON",
    "lat": 43.8828,
    "lng": -79.4403,
    "date": "2025-10-07",
    "time": "14:00",
    "venue": "Richmond Hill Centre",
    "description": "Forum on accessibility policies and best practices.",
    "event_type": "panel",
    "registration_url": "https://lu.ma/richmondhill-access",
    "status": "upcoming"
  },
  {
    "title": "Meet the team",
    "city": "Vaughan",
    "province": "ON",
    "lat": 43.8361,
    "lng": -79.4985,
    "date": "2025-10-09",
    "time": "18:00",
    "venue": "Vaughan Innovation Hub",
    "description": "Pitch night for local startups and investors.",
    "event_type": "showcase",
    "registration_url": "https://lu.ma/vaughan-startup",
    "status": "upcoming"
  },
  {
    "title": "Meet the team",
    "city": "Kitchener",
    "province": "ON",
    "lat": 43.4516,
    "lng": -80.4925,
    "date": "2025-10-11",
    "time": "11:00",
    "venue": "Kitchener City Hall",
    "description": "Meet employers and discover new opportunities.",
    "event_type": "networking",
    "registration_url": "https://lu.ma/kitchener-career",
    "status": "upcoming"
  },
  {
    "title": "Meet the team",
    "city": "Waterloo",
    "province": "ON",
    "lat": 43.4643,
    "lng": -80.5204,
    "date": "2025-10-13",
    "time": "10:00",
    "venue": "Waterloo Innovation Park",
    "description": "Symposium on AI research and applications.",
    "event_type": "workshop",
    "registration_url": "https://lu.ma/waterloo-ai",
    "status": "upcoming"
  },
  {
    "title": "Meet the team",
    "city": "London",
    "province": "ON",
    "lat": 42.9849,
    "lng": -81.2453,
    "date": "2025-10-15",
    "time": "13:00",
    "venue": "London Convention Centre",
    "description": "Forum on accessibility and inclusion in London.",
    "event_type": "panel",
    "registration_url": "https://lu.ma/london-access",
    "status": "upcoming"
  },
  {
    "title": "Meet the team",
    "city": "Oshawa",
    "province": "ON",
    "lat": 43.8971,
    "lng": -78.8658,
    "date": "2025-10-17",
    "time": "09:00",
    "venue": "Oshawa Community Centre",
    "description": "Job expo for local job seekers and employers.",
    "event_type": "networking",
    "registration_url": "https://lu.ma/oshawa-jobexpo",
    "status": "upcoming"
  },
  {
    "title": "Meet the team",
    "city": "Greater Sudbury",
    "province": "ON",
    "lat": 46.4917,
    "lng": -80.9930,
    "date": "2025-10-19",
    "time": "15:00",
    "venue": "Sudbury Science Centre",
    "description": "A day of innovation and science in Sudbury.",
    "event_type": "showcase",
    "registration_url": "https://lu.ma/sudbury-innovation",
    "status": "upcoming"
  },
  {
    "title": "Meet the team",
    "city": "North Bay",
    "province": "ON",
    "lat": 46.3091,
    "lng": -79.4608,
    "date": "2025-10-21",
    "time": "16:00",
    "venue": "North Bay City Hall",
    "description": "Panel discussion on career opportunities in North Bay.",
    "event_type": "panel",
    "registration_url": "https://lu.ma/northbay-career",
    "status": "upcoming"
  },
  {
    "title": "Meet the team",
    "city": "Timmins",
    "province": "ON",
    "lat": 48.4758,
    "lng": -81.3304,
    "date": "2025-10-23",
    "time": "10:30",
    "venue": "Timmins Innovation Centre",
    "description": "Tech day for local businesses and students.",
    "event_type": "workshop",
    "registration_url": "https://lu.ma/timmins-tech",
    "status": "upcoming"
  },
  {
    "title": "Meet the team",
    "city": "Thunder Bay",
    "province": "ON",
    "lat": 48.3809,
    "lng": -89.2477,
    "date": "2025-10-25",
    "time": "14:30",
    "venue": "Thunder Bay City Hall",
    "description": "Dialogue on policy and innovation in Thunder Bay.",
    "event_type": "info_session",
    "registration_url": "https://lu.ma/thunderbay-policy",
    "status": "upcoming"
  },
  {
    "title": "Meet the team",
    "city": "Sault Ste. Marie",
    "province": "ON",
    "lat": 46.5197,
    "lng": -84.3467,
    "date": "2025-10-27",
    "time": "18:00",
    "venue": "Sault Ste. Marie Civic Centre",
    "description": "Networking night for professionals in Sault Ste. Marie.",
    "event_type": "networking",
    "registration_url": "https://lu.ma/saultste-network",
    "status": "upcoming"
  },
  {
    "title": "Meet the team",
    "city": "Windsor",
    "province": "ON",
    "lat": 42.3149,
    "lng": -83.0364,
    "date": "2025-11-01",
    "time": "13:00",
    "venue": "Windsor Innovation Centre",
    "description": "Tech expo for Windsor's tech community.",
    "event_type": "showcase",
    "registration_url": "https://lu.ma/windsor-tech",
    "status": "upcoming"
  },
  {
    "title": "Meet the team",
    "city": "Burlington",
    "province": "ON",
    "lat": 43.3255,
    "lng": -79.7990,
    "date": "2025-11-03",
    "time": "09:30",
    "venue": "Burlington Civic Centre",
    "description": "Summit on diversity, equity, and inclusion in Burlington.",
    "event_type": "info_session",
    "registration_url": "https://lu.ma/burlington-dei",
    "status": "upcoming"
  },
  {
    "title": "Meet the team",
    "city": "Barrie",
    "province": "ON",
    "lat": 44.3894,
    "lng": -79.6903,
    "date": "2025-11-05",
    "time": "15:00",
    "venue": "Barrie Science Centre",
    "description": "A day of innovation and science in Barrie.",
    "event_type": "showcase",
    "registration_url": "https://lu.ma/barrie-innovation",
    "status": "upcoming"
  },
  {
    "title": "Meet the team",
    "city": "Guelph",
    "province": "ON",
    "lat": 43.5448,
    "lng": -80.2482,
    "date": "2025-11-07",
    "time": "16:00",
    "venue": "Guelph City Hall",
    "description": "Panel discussion on career opportunities in Guelph.",
    "event_type": "panel",
    "registration_url": "https://lu.ma/guelph-career",
    "status": "upcoming"
  },
  {
    "title": "Meet the team",
    "city": "Cambridge",
    "province": "ON",
    "lat": 43.3616,
    "lng": -80.3144,
    "date": "2025-11-09",
    "time": "10:30",
    "venue": "Cambridge Innovation Centre",
    "description": "Tech day for local businesses and students in Cambridge.",
    "event_type": "workshop",
    "registration_url": "https://lu.ma/cambridge-tech",
    "status": "upcoming"
  },
  {
    "title": "Meet the team",
    "city": "St. Catharines",
    "province": "ON",
    "lat": 43.1594,
    "lng": -79.2469,
    "date": "2025-11-11",
    "time": "14:30",
    "venue": "St. Catharines City Hall",
    "description": "Dialogue on policy and innovation in St. Catharines.",
    "event_type": "info_session",
    "registration_url": "https://lu.ma/stcatharines-policy",
    "status": "upcoming"
  },
  {
    "title": "Meet the team",
    "city": "Kingston",
    "province": "ON",
    "lat": 44.2312,
    "lng": -76.4860,
    "date": "2025-11-13",
    "time": "15:00",
    "venue": "Kingston Science Centre",
    "description": "A day of innovation and science in Kingston.",
    "event_type": "showcase",
    "registration_url": "https://lu.ma/kingston-innovation",
    "status": "upcoming"
  },
  {
    "title": "Meet the team",
    "city": "Québec City",
    "province": "QC",
    "lat": 46.813819,
    "lng": -71.207997,
    "date": "2025-11-13",
    "time": "15:00",
    "venue": "Québec Innovation Hub",
    "description": "A day of innovation and science in Québec City.",
    "event_type": "showcase",
    "registration_url": "https://lu.ma/quebec-innovation",
    "status": "upcoming"
  },
  {
    "title": "Meet the team",
    "city": "Montreal",
    "province": "QC",
    "lat": 45.508888,
    "lng": -73.561668,
    "date": "2025-11-13",
    "time": "15:00",
    "venue": "Montreal Science Centre",
    "description": "A day of innovation and science in Montreal.",
    "event_type": "showcase",
    "registration_url": "https://lu.ma/montreal-innovation",
    "status": "upcoming"
  },
  {
    "title": "Meet the team",
    "city": "Victoria",
    "province": "BC",
    "lat": 48.407326,
    "lng": -123.329773,
    "date": "2025-11-13",
    "time": "15:00",
    "venue": "Victoria Tech Hub",
    "description": "A day of innovation and science in Victoria.",
    "event_type": "showcase",
    "registration_url": "https://lu.ma/victoria-innovation",
    "status": "upcoming"
  },
  {
    "title": "Meet the team",
    "city": "Vancouver",
    "province": "BC",
    "lat": 49.246292,
    "lng": -123.116226,
    "date": "2025-11-13",
    "time": "15:00",
    "venue": "Vancouver Innovation Centre",
    "description": "A day of innovation and science in Vancouver.",
    "event_type": "showcase",
    "registration_url": "https://lu.ma/vancouver-innovation",
    "status": "upcoming"
  },
  {
    "title": "Meet the team",
    "city": "Edmonton",
    "province": "AB",
    "lat": 53.631611,
    "lng": -113.323975,
    "date": "2025-11-13",
    "time": "15:00",
    "venue": "Edmonton Science Centre",
    "description": "A day of innovation and science in Edmonton.",
    "event_type": "showcase",
    "registration_url": "https://lu.ma/edmonton-innovation",
    "status": "upcoming"
  },
  {
    "title": "Meet the team",
    "city": "Calgary",
    "province": "AB",
    "lat": 51.05011,
    "lng": -114.08529,
    "date": "2025-11-13",
    "time": "15:00",
    "venue": "Calgary Innovation Hub",
    "description": "A day of innovation and science in Calgary.",
    "event_type": "showcase",
    "registration_url": "https://lu.ma/calgary-innovation",
    "status": "upcoming"
  },
  {
    "title": "Meet the team",
    "city": "Winnipeg",
    "province": "MB",
    "lat": 49.895136,
    "lng": -97.138374,
    "date": "2025-11-13",
    "time": "15:00",
    "venue": "Winnipeg Science Centre",
    "description": "A day of innovation and science in Winnipeg.",
    "event_type": "showcase",
    "registration_url": "https://lu.ma/winnipeg-innovation",
    "status": "upcoming"
  },
  {
    "title": "Meet the team",
    "city": "Regina",
    "province": "SK",
    "lat": 50.445211,
    "lng": -104.618894,
    "date": "2025-11-13",
    "time": "15:00",
    "venue": "Regina Innovation Hub",
    "description": "A day of innovation and science in Regina.",
    "event_type": "showcase",
    "registration_url": "https://lu.ma/regina-innovation",
    "status": "upcoming"
  },
  {
    "title": "Meet the team",
    "city": "Halifax",
    "province": "NS",
    "lat": 44.65107,
    "lng": -63.582687,
    "date": "2025-11-13",
    "time": "15:00",
    "venue": "Halifax Science Centre",
    "description": "A day of innovation and science in Halifax.",
    "event_type": "showcase",
    "registration_url": "https://lu.ma/halifax-innovation",
    "status": "upcoming"
  },
  {
    "title": "Meet the team",
    "city": "Fredericton",
    "province": "NB",
    "lat": 45.964993,
    "lng": -66.646332,
    "date": "2025-11-13",
    "time": "15:00",
    "venue": "Fredericton Innovation Hub",
    "description": "A day of innovation and science in Fredericton.",
    "event_type": "showcase",
    "registration_url": "https://lu.ma/fredericton-innovation",
    "status": "upcoming"
  },
  {
    "title": "Meet the team",
    "city": "St. John’s",
    "province": "NL",
    "lat": 47.560539,
    "lng": -52.71283,
    "date": "2025-11-13",
    "time": "15:00",
    "venue": "St. John’s Innovation Centre",
    "description": "A day of innovation and science in St. John’s.",
    "event_type": "showcase",
    "registration_url": "https://lu.ma/stjohns-innovation",
    "status": "upcoming"
  },
  {
    "title": "Meet the team",
    "city": "Charlottetown",
    "province": "PE",
    "lat": 46.238888,
    "lng": -63.129166,
    "date": "2025-11-13",
    "time": "15:00",
    "venue": "Charlottetown Science Centre",
    "description": "A day of innovation and science in Charlottetown.",
    "event_type": "showcase",
    "registration_url": "https://lu.ma/charlottetown-innovation",
    "status": "upcoming"
  }
]